[
    {
        "id": 1,
        "name": "Wisła (Warszawa)",
        "lat": 52.2297,
        "lng": 21.0122,
        "district": "PZW Mazowiecki",
        "fish": ["catfish", "pike", "bream"],
        "type": "river",
        "voivodeship": "Mazowieckie"
    },
    {
        "id": 2,
        "name": "Jezioro Białe - Gostynin",
        "lat": 52.4167,
        "lng": 19.4667,
        "district": "PZW Płock",
        "fish": ["pike", "perch", "carp"],
        "type": "lake",
        "voivodeship": "Mazowieckie"
    },
    {
        "id": 3,
        "name": "Zalew Zegrzyński",
        "lat": 52.4667,
        "lng": 21.0333,
        "district": "PZW Mazowiecki",
        "fish": ["pike", "perch", "zander"],
        "type": "reservoir",
        "voivodeship": "Mazowieckie"
    },
    {
        "id": 4,
        "name": "Kanał Żerański (Aleksandrów)",
        "lat": 52.3167,
        "lng": 21.0667,
        "district": "PZW Mazowiecki",
        "fish": ["pike", "perch", "roach"],
        "type": "canal",
        "voivodeship": "Mazowieckie"
    },
    {
        "id": 5,
        "name": "Stawy Grodzisk Mazowiecki",
        "lat": 52.1000,
        "lng": 20.6333,
        "district": "PZW Mazowiecki",
        "fish": ["carp", "pike", "tench"],
        "type": "pond",
        "voivodeship": "Mazowieckie"
    },
    {
        "id": 6,
        "name": "Rzeka Narew (Pułtusk)",
        "lat": 52.7000,
        "lng": 21.0833,
        "district": "PZW Mazowiecki",
        "fish": ["pike", "zander", "bream"],
        "type": "river",
        "voivodeship": "Mazowieckie"
    },
    {
        "id": 7,
        "name": "Jezioro Czerniakowskie",
        "lat": 52.1833,
        "lng": 21.0500,
        "district": "PZW Mazowiecki",
        "fish": ["pike", "perch", "carp"],
        "type": "lake",
        "voivodeship": "Mazowieckie"
    },
    {
        "id": 8,
        "name": "Zbiornik Domaniów",
        "lat": 51.3167,
        "lng": 21.4667,
        "district": "PZW Mazowiecki",
        "fish": ["carp", "pike", "zander"],
        "type": "reservoir",
        "voivodeship": "Mazowieckie"
    },
    {
        "id": 9,
        "name": "Rzeka Bug (Wyszków)",
        "lat": 52.5833,
        "lng": 21.4667,
        "district": "PZW Mazowiecki",
        "fish": ["catfish", "pike", "bream"],
        "type": "river",
        "voivodeship": "Mazowieckie"
    },
    {
        "id": 10,
        "name": "Jezioro Zdworskie",
        "lat": 52.3167,
        "lng": 20.3167,
        "district": "PZW Mazowiecki",
        "fish": ["pike", "perch", "roach"],
        "type": "lake",
        "voivodeship": "Mazowieckie"
    },
    {
        "id": 11,
        "name": "Stawy w Kozienicach",
        "lat": 51.5833,
        "lng": 21.5500,
        "district": "PZW Mazowiecki",
        "fish": ["carp", "pike", "tench"],
        "type": "pond",
        "voivodeship": "Mazowieckie"
    },
    {
        "id": 12,
        "name": "Rzeka Pilica (Nowe Miasto nad Pilicą)",
        "lat": 51.6167,
        "lng": 20.5667,
        "district": "PZW Mazowiecki",
        "fish": ["pike", "zander", "bream"],
        "type": "river",
        "voivodeship": "Mazowieckie"
    },
    {
        "id": 13,
        "name": "Zbiornik Młyny",
        "lat": 52.1167,
        "lng": 21.3167,
        "district": "PZW Mazowiecki",
        "fish": ["pike", "perch", "carp"],
        "type": "reservoir",
        "voivodeship": "Mazowieckie"
    },
    {
        "id": 14,
        "name": "Zalew Kryspinów",
        "lat": 50.0333,
        "lng": 19.8000,
        "district": "PZW Kraków",
        "fish": ["carp", "roach", "pike"],
        "type": "reservoir",
        "voivodeship": "Małopolskie"
    },
    {
        "id": 15,
        "name": "Jezioro Rożnowskie",
        "lat": 49.7167,
        "lng": 20.6833,
        "district": "PZW Nowy Sącz",
        "fish": ["pike", "perch", "carp"],
        "type": "reservoir",
        "voivodeship": "Małopolskie"
    },
    {
        "id": 16,
        "name": "Zbiornik Zbrzyca",
        "lat": 49.9167,
        "lng": 21.7667,
        "district": "PZW Kraków",
        "fish": ["perch", "roach", "pike"],
        "type": "reservoir",
        "voivodeship": "Małopolskie"
    },
    {
        "id": 17,
        "name": "Jezioro Czorsztyńskie",
        "lat": 49.4333,
        "lng": 20.2667,
        "district": "PZW Nowy Targ",
        "fish": ["pike", "perch", "trout"],
        "type": "reservoir",
        "voivodeship": "Małopolskie"
    },
    {
        "id": 18,
        "name": "Zalew Bagry",
        "lat": 50.0333,
        "lng": 20.0000,
        "district": "PZW Kraków",
        "fish": ["carp", "pike", "zander"],
        "type": "reservoir",
        "voivodeship": "Małopolskie"
    },
    {
        "id": 19,
        "name": "Rzeka Dunajec (Tarnów)",
        "lat": 50.0167,
        "lng": 20.9833,
        "district": "PZW Tarnów",
        "fish": ["trout", "grayling", "pike"],
        "type": "river",
        "voivodeship": "Małopolskie"
    },
    {
        "id": 20,
        "name": "Zalew Zakrzówek",
        "lat": 50.0333,
        "lng": 19.9167,
        "district": "PZW Kraków",
        "fish": ["pike", "perch", "carp"],
        "type": "quarry_lake",
        "voivodeship": "Małopolskie"
    },
    {
        "id": 21,
        "name": "Jezioro Dobczyckie",
        "lat": 49.8833,
        "lng": 20.0667,
        "district": "PZW Kraków",
        "fish": ["pike", "zander", "bream"],
        "type": "reservoir",
        "voivodeship": "Małopolskie"
    },
    {
        "id": 22,
        "name": "Rzeka Raba (Myślenice)",
        "lat": 49.8333,
        "lng": 19.9333,
        "district": "PZW Kraków",
        "fish": ["trout", "grayling", "pike"],
        "type": "river",
        "voivodeship": "Małopolskie"
    },
    {
        "id": 23,
        "name": "Zalew Brzegi",
        "lat": 50.0667,
        "lng": 20.1333,
        "district": "PZW Kraków",
        "fish": ["carp", "pike", "perch"],
        "type": "reservoir",
        "voivodeship": "Małopolskie"
    },
    {
        "id": 24,
        "name": "Jezioro Mucharskie",
        "lat": 49.8167,
        "lng": 19.5667,
        "district": "PZW Kraków",
        "fish": ["pike", "zander", "carp"],
        "type": "reservoir",
        "voivodeship": "Małopolskie"
    },
    {
        "id": 25,
        "name": "Rzeka Poprad (Muszyna)",
        "lat": 49.3500,
        "lng": 20.9000,
        "district": "PZW Nowy Sącz",
        "fish": ["trout", "grayling", "perch"],
        "type": "river",
        "voivodeship": "Małopolskie"
    },
    {
        "id": 26,
        "name": "Zalew Czchowski",
        "lat": 49.8333,
        "lng": 20.6667,
        "district": "PZW Tarnów",
        "fish": ["pike", "perch", "zander"],
        "type": "reservoir",
        "voivodeship": "Małopolskie"
    },
    {
        "id": 27,
        "name": "Zalew Chechło",
        "lat": 50.1167,
        "lng": 19.9000,
        "district": "PZW Kraków",
        "fish": ["carp", "pike", "roach"],
        "type": "reservoir",
        "voivodeship": "Małopolskie"
    },
    {
        "id": 28,
        "name": "Zbiornik Mietków (Chwałów)",
        "lat": 50.9167,
        "lng": 16.6167,
        "district": "PZW Wrocław",
        "fish": ["carp", "pike", "perch"],
        "type": "reservoir",
        "voivodeship": "Dolnośląskie"
    },
    {
        "id": 29,
        "name": "Dziewin Morocha",
        "lat": 51.4167,
        "lng": 16.4500,
        "district": "PZW Wrocław",
        "fish": ["pike", "perch", "roach"],
        "type": "oxbow_lake",
        "voivodeship": "Dolnośląskie"
    },
    {
        "id": 30,
        "name": "Akwen Brodno",
        "lat": 51.1500,
        "lng": 16.7333,
        "district": "PZW Wrocław",
        "fish": ["carp", "pike", "perch"],
        "type": "lake",
        "voivodeship": "Dolnośląskie"
    },
    {
        "id": 31,
        "name": "Staw Biały Kościół",
        "lat": 50.8167,
        "lng": 16.9333,
        "district": "PZW Wrocław",
        "fish": ["catfish", "pike", "carp"],
        "type": "pond",
        "voivodeship": "Dolnośląskie"
    },
    {
        "id": 32,
        "name": "Zbiornik Glinianki (Grabowno Wielkie)",
        "lat": 51.0167,
        "lng": 17.0833,
        "district": "PZW Wrocław",
        "fish": ["carp", "pike", "perch"],
        "type": "quarry_lake",
        "voivodeship": "Dolnośląskie"
    },
    {
        "id": 33,
        "name": "Rzeka Odra (Wrocław)",
        "lat": 51.1167,
        "lng": 17.0333,
        "district": "PZW Wrocław",
        "fish": ["pike", "zander", "bream"],
        "type": "river",
        "voivodeship": "Dolnośląskie"
    },
    {
        "id": 34,
        "name": "Jezioro Słoneczne (Legnica)",
        "lat": 51.2000,
        "lng": 16.1667,
        "district": "PZW Legnica",
        "fish": ["carp", "pike", "tench"],
        "type": "lake",
        "voivodeship": "Dolnośląskie"
    },
    {
        "id": 35,
        "name": "Zbiornik Jeżów Sudecki",
        "lat": 50.8500,
        "lng": 15.7167,
        "district": "PZW Jelenia Góra",
        "fish": ["trout", "perch", "pike"],
        "type": "reservoir",
        "voivodeship": "Dolnośląskie"
    },
    {
        "id": 36,
        "name": "Jezioro Leśne (Lubiąż)",
        "lat": 51.2667,
        "lng": 16.4667,
        "district": "PZW Legnica",
        "fish": ["pike", "perch", "carp"],
        "type": "lake",
        "voivodeship": "Dolnośląskie"
    },
    {
        "id": 37,
        "name": "Zalew Radoniów",
        "lat": 50.9833,
        "lng": 15.7500,
        "district": "PZW Jelenia Góra",
        "fish": ["carp", "pike", "zander"],
        "type": "reservoir",
        "voivodeship": "Dolnośląskie"
    },
    {
        "id": 38,
        "name": "Rzeka Bóbr (Jelenia Góra)",
        "lat": 50.9000,
        "lng": 15.7333,
        "district": "PZW Jelenia Góra",
        "fish": ["trout", "grayling", "pike"],
        "type": "river",
        "voivodeship": "Dolnośląskie"
    },
    {
        "id": 39,
        "name": "Zbiornik Sosnówka",
        "lat": 50.8167,
        "lng": 15.6833,
        "district": "PZW Jelenia Góra",
        "fish": ["pike", "perch", "trout"],
        "type": "reservoir",
        "voivodeship": "Dolnośląskie"
    },
    {
        "id": 40,
        "name": "Staw w Ścinawce Średniej",
        "lat": 50.4833,
        "lng": 16.4667,
        "district": "PZW Wałbrzych",
        "fish": ["carp", "tench", "pike"],
        "type": "pond",
        "voivodeship": "Dolnośląskie"
    },
    {
        "id": 41,
        "name": "Jezioro Świętno",
        "lat": 52.1167,
        "lng": 16.3167,
        "district": "PZW Zielona Góra",
        "fish": ["pike", "perch", "carp"],
        "type": "lake",
        "voivodeship": "Wielkopolskie"
    },
    {
        "id": 42,
        "name": "Łowisko Myślina",
        "lat": 52.0667,
        "lng": 16.5000,
        "district": "PZW Poznań",
        "fish": ["carp", "pike", "tench"],
        "type": "pond",
        "voivodeship": "Wielkopolskie"
    },
    {
        "id": 43,
        "name": "Jezioro Owieczki",
        "lat": 52.3833,
        "lng": 17.0833,
        "district": "PZW Poznań",
        "fish": ["pike", "perch", "zander"],
        "type": "lake",
        "voivodeship": "Wielkopolskie"
    },
    {
        "id": 44,
        "name": "Żwirownia w Owińskach",
        "lat": 52.4833,
        "lng": 16.8333,
        "district": "PZW Poznań",
        "fish": ["carp", "pike", "perch"],
        "type": "quarry_lake",
        "voivodeship": "Wielkopolskie"
    },
    {
        "id": 45,
        "name": "Jezioro Brzednia",
        "lat": 52.2167,
        "lng": 16.6167,
        "district": "PZW Poznań",
        "fish": ["pike", "perch", "roach"],
        "type": "lake",
        "voivodeship": "Wielkopolskie"
    },
    {
        "id": 46,
        "name": "Jezioro Niepruszewskie",
        "lat": 52.2833,
        "lng": 16.5000,
        "district": "PZW Poznań",
        "fish": ["pike", "zander", "bream"],
        "type": "lake",
        "voivodeship": "Wielkopolskie"
    },
    {
        "id": 47,
        "name": "Jezioro Jezierzyckie",
        "lat": 52.3500,
        "lng": 16.5667,
        "district": "PZW Poznań",
        "fish": ["pike", "perch", "carp"],
        "type": "lake",
        "voivodeship": "Wielkopolskie"
    },
    {
        "id": 48,
        "name": "Kanał Kościański Obry",
        "lat": 52.0833,
        "lng": 16.6500,
        "district": "PZW Poznań",
        "fish": ["pike", "perch", "roach"],
        "type": "canal",
        "voivodeship": "Wielkopolskie"
    },
    {
        "id": 49,
        "name": "Jezioro Krzywińskie",
        "lat": 52.0833,
        "lng": 16.7000,
        "district": "PZW Poznań",
        "fish": ["bream", "perch", "carp"],
        "type": "lake",
        "voivodeship": "Wielkopolskie"
    },
    {
        "id": 50,
        "name": "Jezioro Ziemnice",
        "lat": 52.1000,
        "lng": 16.6667,
        "district": "PZW Poznań",
        "fish": ["zander", "bream", "perch"],
        "type": "lake",
        "voivodeship": "Wielkopolskie"
    },
    {
        "id": 51,
        "name": "Staw w Sernikach",
        "lat": 51.2667,
        "lng": 22.7000,
        "district": "PZW Lublin",
        "fish": ["carp", "pike", "perch"],
        "type": "pond",
        "voivodeship": "Lubelskie"
    },
    {
        "id": 52,
        "name": "Jezioro Białe (Lubelskie)",
        "lat": 51.3167,
        "lng": 23.0833,
        "district": "PZW Lublin",
        "fish": ["pike", "perch", "roach"],
        "type": "lake",
        "voivodeship": "Lubelskie"
    },
    {
        "id": 53,
        "name": "Zbiornik Zemborzyce",
        "lat": 51.2167,
        "lng": 22.5667,
        "district": "PZW Lublin",
        "fish": ["carp", "pike", "zander"],
        "type": "reservoir",
        "voivodeship": "Lubelskie"
    },
    {
        "id": 54,
        "name": "Rzeka Wieprz (Lubartów)",
        "lat": 51.4667,
        "lng": 22.6000,
        "district": "PZW Lublin",
        "fish": ["pike", "bream", "roach"],
        "type": "river",
        "voivodeship": "Lubelskie"
    },
    {
        "id": 55,
        "name": "Jezioro Uściwierz",
        "lat": 51.3833,
        "lng": 23.1167,
        "district": "PZW Lublin",
        "fish": ["pike", "perch", "carp"],
        "type": "lake",
        "voivodeship": "Lubelskie"
    },
    {
        "id": 56,
        "name": "Staw w Piaskach",
        "lat": 51.1333,
        "lng": 22.8667,
        "district": "PZW Lublin",
        "fish": ["carp", "tench", "pike"],
        "type": "pond",
        "voivodeship": "Lubelskie"
    },
    {
        "id": 57,
        "name": "Zbiornik Dratów",
        "lat": 51.4167,
        "lng": 23.0833,
        "district": "PZW Lublin",
        "fish": ["pike", "zander", "bream"],
        "type": "reservoir",
        "voivodeship": "Lubelskie"
    },
    {
        "id": 58,
        "name": "Jezioro Rotcze",
        "lat": 51.3500,
        "lng": 23.0500,
        "district": "PZW Lublin",
        "fish": ["pike", "perch", "roach"],
        "type": "lake",
        "voivodeship": "Lubelskie"
    },
    {
        "id": 59,
        "name": "Gościcina",
        "lat": 54.5833,
        "lng": 18.1500,
        "district": "PZW Gdańsk",
        "fish": ["trout", "perch", "pike"],
        "type": "river",
        "voivodeship": "Pomorskie"
    },
    {
        "id": 60,
        "name": "Bolszewka",
        "lat": 54.5500,
        "lng": 18.1667,
        "district": "PZW Gdańsk",
        "fish": ["perch", "roach", "pike"],
        "type": "river",
        "voivodeship": "Pomorskie"
    },
    {
        "id": 61,
        "name": "Jezioro Raduńskie Górne",
        "lat": 54.3167,
        "lng": 17.8333,
        "district": "PZW Słupsk",
        "fish": ["pike", "perch", "zander"],
        "type": "lake",
        "voivodeship": "Pomorskie"
    },
    {
        "id": 62,
        "name": "Zalew Wiślany (Krynica Morska)",
        "lat": 54.3833,
        "lng": 19.4500,
        "district": "PZW Elbląg",
        "fish": ["pike", "bream", "perch"],
        "type": "lagoon",
        "voivodeship": "Pomorskie"
    },
    {
        "id": 63,
        "name": "Rzeka Radunia (Żukowo)",
        "lat": 54.3333,
        "lng": 18.3500,
        "district": "PZW Gdańsk",
        "fish": ["trout", "grayling", "pike"],
        "type": "river",
        "voivodeship": "Pomorskie"
    },
    {
        "id": 64,
        "name": "Jezioro Dąbrowskie",
        "lat": 54.4500,
        "lng": 18.4000,
        "district": "PZW Gdańsk",
        "fish": ["carp", "pike", "perch"],
        "type": "lake",
        "voivodeship": "Pomorskie"
    },
    {
        "id": 65,
        "name": "Zbiornik Żarnowieckie",
        "lat": 54.7500,
        "lng": 18.0833,
        "district": "PZW Wejherowo",
        "fish": ["pike", "zander", "bream"],
        "type": "reservoir",
        "voivodeship": "Pomorskie"
    },
    {
        "id": 66,
        "name": "Jezioro Małe Łąkie",
        "lat": 53.4167,
        "lng": 18.2167,
        "district": "PZW Bydgoszcz",
        "fish": ["pike", "perch", "roach"],
        "type": "lake",
        "voivodeship": "Kujawsko-Pomorskie"
    },
    {
        "id": 67,
        "name": "Jezioro Gopło",
        "lat": 52.5500,
        "lng": 18.3833,
        "district": "PZW Bydgoszcz",
        "fish": ["pike", "perch", "bream"],
        "type": "lake",
        "voivodeship": "Kujawsko-Pomorskie"
    },
    {
        "id": 68,
        "name": "Rzeka Brda",
        "lat": 53.5167,
        "lng": 17.7500,
        "district": "PZW Bydgoszcz",
        "fish": ["pike", "perch", "zander"],
        "type": "river",
        "voivodeship": "Kujawsko-Pomorskie"
    },
    {
        "id": 69,
        "name": "Jezioro Kusowo",
        "lat": 53.1833,
        "lng": 18.2667,
        "district": "PZW Bydgoszcz",
        "fish": ["carp", "pike", "perch"],
        "type": "lake",
        "voivodeship": "Kujawsko-Pomorskie"
    },
    {
        "id": 70,
        "name": "Jezioro Ostrowo",
        "lat": 53.4167,
        "lng": 17.5000,
        "district": "PZW Bydgoszcz",
        "fish": ["pike", "perch", "roach"],
        "type": "lake",
        "voivodeship": "Kujawsko-Pomorskie"
    },
    {
        "id": 71,
        "name": "Jezioro Kosz",
        "lat": 53.3333,
        "lng": 18.1500,
        "district": "PZW Bydgoszcz",
        "fish": ["tench", "pike", "perch"],
        "type": "lake",
        "voivodeship": "Kujawsko-Pomorskie"
    },
    {
        "id": 72,
        "name": "Jezioro Piaseczno",
        "lat": 53.4500,
        "lng": 18.3333,
        "district": "PZW Bydgoszcz",
        "fish": ["pike", "perch", "roach"],
        "type": "lake",
        "voivodeship": "Kujawsko-Pomorskie"
    },
    {
        "id": 73,
        "name": "Zbiornik Pogoria III",
        "lat": 50.3000,
        "lng": 19.0833,
        "district": "PZW Katowice",
        "fish": ["carp", "pike", "perch"],
        "type": "reservoir",
        "voivodeship": "Śląskie"
    },
    {
        "id": 74,
        "name": "Rzeka Wisła (Tychy)",
        "lat": 50.1167,
        "lng": 18.9833,
        "district": "PZW Katowice",
        "fish": ["pike", "zander", "bream"],
        "type": "river",
        "voivodeship": "Śląskie"
    },
    {
        "id": 75,
        "name": "Zbiornik Kozłowa Góra",
        "lat": 50.4500,
        "lng": 19.1500,
        "district": "PZW Katowice",
        "fish": ["carp", "pike", "tench"],
        "type": "reservoir",
        "voivodeship": "Śląskie"
    },
    {
        "id": 76,
        "name": "Jezioro Dzierżno Duże",
        "lat": 50.3167,
        "lng": 18.7667,
        "district": "PZW Gliwice",
        "fish": ["pike", "perch", "zander"],
        "type": "lake",
        "voivodeship": "Śląskie"
    },
    {
        "id": 77,
        "name": "Rzeka Przemsza (Sosnowiec)",
        "lat": 50.2833,
        "lng": 19.1167,
        "district": "PZW Katowice",
        "fish": ["pike", "roach", "perch"],
        "type": "river",
        "voivodeship": "Śląskie"
    },
    {
        "id": 78,
        "name": "Staw Kajakowy (Częstochowa)",
        "lat": 50.8000,
        "lng": 19.1167,
        "district": "PZW Częstochowa",
        "fish": ["carp", "pike", "tench"],
        "type": "pond",
        "voivodeship": "Śląskie"
    },
    {
        "id": 79,
        "name": "Jezioro Wigry",
        "lat": 54.0058,
        "lng": 23.1022,
        "district": "PZW Suwałki",
        "fish": ["pike", "perch", "roach"],
        "type": "lake",
        "voivodeship": "Podlaskie"
    },
    {
        "id": 80,
        "name": "Jezioro Zelwa",
        "lat": 53.3667,
        "lng": 23.3833,
        "district": "PZW Białystok",
        "fish": ["pike", "perch", "tench"],
        "type": "lake",
        "voivodeship": "Podlaskie"
    },
    {
        "id": 81,
        "name": "Staw Stary Młyn",
        "lat": 53.1333,
        "lng": 23.1667,
        "district": "PZW Białystok",
        "fish": ["carp", "roach", "pike"],
        "type": "pond",
        "voivodeship": "Podlaskie"
    },
    {
        "id": 82,
        "name": "Rzeka Supraśl",
        "lat": 53.2000,
        "lng": 23.2000,
        "district": "PZW Białystok",
        "fish": ["trout", "grayling", "pike"],
        "type": "river",
        "voivodeship": "Podlaskie"
    },
    {
        "id": 83,
        "name": "Zbiornik Siemianówka",
        "lat": 52.9667,
        "lng": 23.6167,
        "district": "PZW Białystok",
        "fish": ["pike", "zander", "bream"],
        "type": "reservoir",
        "voivodeship": "Podlaskie"
    },
    {
        "id": 84,
        "name": "Zalew Sulejowski",
        "lat": 51.4333,
        "lng": 19.8833,
        "district": "PZW Piotrków Trybunalski",
        "fish": ["pike", "zander", "bream"],
        "type": "reservoir",
        "voivodeship": "Łódzkie"
    },
    {
        "id": 85,
        "name": "Rzeka Pilica (Tomaszów Mazowiecki)",
        "lat": 51.5333,
        "lng": 20.0167,
        "district": "PZW Piotrków Trybunalski",
        "fish": ["pike", "perch", "roach"],
        "type": "river",
        "voivodeship": "Łódzkie"
    },
    {
        "id": 86,
        "name": "Jezioro Jeziorsko",
        "lat": 51.8167,
        "lng": 18.6667,
        "district": "PZW Sieradz",
        "fish": ["carp", "pike", "zander"],
        "type": "reservoir",
        "voivodeship": "Łódzkie"
    },
    {
        "id": 87,
        "name": "Staw w Łagiewnikach",
        "lat": 51.7500,
        "lng": 19.4167,
        "district": "PZW Łódź",
        "fish": ["carp", "tench", "pike"],
        "type": "pond",
        "voivodeship": "Łódzkie"
    },
    {
        "id": 88,
        "name": "Zbiornik Gałkówek",
        "lat": 51.9333,
        "lng": 19.7000,
        "district": "PZW Łódź",
        "fish": ["pike", "perch", "bream"],
        "type": "reservoir",
        "voivodeship": "Łódzkie"
    },
    {
        "id": 89,
        "name": "Jezioro Solińskie",
        "lat": 49.3667,
        "lng": 22.4500,
        "district": "PZW Krosno",
        "fish": ["pike", "zander", "perch"],
        "type": "reservoir",
        "voivodeship": "Podkarpackie"
    },
    {
        "id": 90,
        "name": "Rzeka San (Przemyśl)",
        "lat": 49.7833,
        "lng": 22.7667,
        "district": "PZW Przemyśl",
        "fish": ["trout", "grayling", "pike"],
        "type": "river",
        "voivodeship": "Podkarpackie"
    },
    {
        "id": 91,
        "name": "Zbiornik Myczkowce",
        "lat": 49.3833,
        "lng": 22.4833,
        "district": "PZW Krosno",
        "fish": ["pike", "perch", "carp"],
        "type": "reservoir",
        "voivodeship": "Podkarpackie"
    },
    {
        "id": 92,
        "name": "Staw w Ropczycach",
        "lat": 50.0500,
        "lng": 21.6167,
        "district": "PZW Rzeszów",
        "fish": ["carp", "pike", "tench"],
        "type": "pond",
        "voivodeship": "Podkarpackie"
    },
    {
        "id": 93,
        "name": "Rzeka Wisłok (Rzeszów)",
        "lat": 50.0333,
        "lng": 21.9833,
        "district": "PZW Rzeszów",
        "fish": ["trout", "perch", "pike"],
        "type": "river",
        "voivodeship": "Podkarpackie"
    },
    {
        "id": 94,
        "name": "Zbiornik Rozoga",
        "lat": 53.5000,
        "lng": 21.9333,
        "district": "PZW Białystok",
        "fish": ["pike", "perch", "carp"],
        "type": "reservoir",
        "voivodeship": "Warmińsko-Mazurskie"
    },
    {
        "id": 95,
        "name": "Jezioro Śniardwy",
        "lat": 53.7167,
        "lng": 21.8500,
        "district": "PZW Olsztyn",
        "fish": ["pike", "zander", "bream"],
        "type": "lake",
        "voivodeship": "Warmińsko-Mazurskie"
    },
    {
        "id": 96,
        "name": "Rzeka Łyna (Olsztyn)",
        "lat": 53.7833,
        "lng": 20.4833,
        "district": "PZW Olsztyn",
        "fish": ["trout", "pike", "perch"],
        "type": "river",
        "voivodeship": "Warmińsko-Mazurskie"
    },
    {
        "id": 97,
        "name": "Jezioro Mamry",
        "lat": 54.1500,
        "lng": 21.6167,
        "district": "PZW Giżycko",
        "fish": ["pike", "perch", "zander"],
        "type": "lake",
        "voivodeship": "Warmińsko-Mazurskie"
    },
    {
        "id": 98,
        "name": "Zbiornik Dgał Wielki",
        "lat": 53.6667,
        "lng": 21.5000,
        "district": "PZW Mrągowo",
        "fish": ["carp", "pike", "roach"],
        "type": "reservoir",
        "voivodeship": "Warmińsko-Mazurskie"
    },
    {
        "id": 99,
        "name": "Jezioro Solińskie",
        "lat": 49.3667,
        "lng": 22.4500,
        "district": "PZW Krosno",
        "fish": ["pike", "zander", "perch"],
        "type": "reservoir",
        "voivodeship": "Podkarpackie"
    },
    {
        "id": 100,
        "name": "Rzeka San (Przemyśl)",
        "lat": 49.7833,
        "lng": 22.7667,
        "district": "PZW Przemyśl",
        "fish": ["trout", "grayling", "pike"],
        "type": "river",
        "voivodeship": "Podkarpackie"
    },
    {
        "id": 101,
        "name": "Zbiornik Myczkowce",
        "lat": 49.3833,
        "lng": 22.4833,
        "district": "PZW Krosno",
        "fish": ["pike", "perch", "carp"],
        "type": "reservoir",
        "voivodeship": "Podkarpackie"
    },
    {
        "id": 102,
        "name": "Zalew Sielpia",
        "lat": 51.1167,
        "lng": 20.3000,
        "district": "PZW Kielce",
        "fish": ["carp", "pike", "perch"],
        "type": "reservoir",
        "voivodeship": "Świętokrzyskie"
    },
    {
        "id": 103,
        "name": "Rzeka Nida (Pińczów)",
        "lat": 50.5167,
        "lng": 20.5333,
        "district": "PZW Kielce",
        "fish": ["pike", "bream", "roach"],
        "type": "river",
        "voivodeship": "Świętokrzyskie"
    },
    {
        "id": 104,
        "name": "Jezioro Chańcza",
        "lat": 50.7333,
        "lng": 21.0500,
        "district": "PZW Kielce",
        "fish": ["pike", "perch", "zander"],
        "type": "reservoir",
        "voivodeship": "Świętokrzyskie"
    },
    {
        "id": 105,
        "name": "Zalew Otmuchowski",
        "lat": 50.4667,
        "lng": 17.1667,
        "district": "PZW Opole",
        "fish": ["carp", "pike", "perch"],
        "type": "reservoir",
        "voivodeship": "Opolskie"
    },
    {
        "id": 106,
        "name": "Rzeka Nysa Kłodzka",
        "lat": 50.4667,
        "lng": 17.3167,
        "district": "PZW Opole",
        "fish": ["trout", "grayling", "pike"],
        "type": "river",
        "voivodeship": "Opolskie"
    },
    {
        "id": 107,
        "name": "Jezioro Turawskie",
        "lat": 50.7333,
        "lng": 18.0833,
        "district": "PZW Opole",
        "fish": ["pike", "perch", "zander"],
        "type": "reservoir",
        "voivodeship": "Opolskie"
    },
    {
        "id": 108,
        "name": "Jezioro Miedwie",
        "lat": 53.2833,
        "lng": 14.9000,
        "district": "PZW Szczecin",
        "fish": ["pike", "perch", "zander"],
        "type": "lake",
        "voivodeship": "Zachodniopomorskie"
    },
    {
        "id": 109,
        "name": "Rzeka Odra (Szczecin)",
        "lat": 53.4333,
        "lng": 14.5500,
        "district": "PZW Szczecin",
        "fish": ["pike", "zander", "bream"],
        "type": "river",
        "voivodeship": "Zachodniopomorskie"
    },
    {
        "id": 110,
        "name": "Zalew Szczeciński",
        "lat": 53.6667,
        "lng": 14.5833,
        "district": "PZW Szczecin",
        "fish": ["pike", "perch", "roach"],
        "type": "lagoon",
        "voivodeship": "Zachodniopomorskie"
    },
    {
        "id": 111,
        "name": "Jezioro Sławskie",
        "lat": 51.8833,
        "lng": 16.0667,
        "district": "PZW Zielona Góra",
        "fish": ["pike", "perch", "zander"],
        "type": "lake",
        "voivodeship": "Lubuskie"
    },
    {
        "id": 112,
        "name": "Rzeka Warta (Kostrzyn)",
        "lat": 52.5833,
        "lng": 14.6667,
        "district": "PZW Gorzów Wielkopolski",
        "fish": ["pike", "bream", "roach"],
        "type": "river",
        "voivodeship": "Lubuskie"
    },
    {
        "id": 113,
        "name": "Zalew Bledzewski",
        "lat": 52.5167,
        "lng": 15.4000,
        "district": "PZW Gorzów Wielkopolski",
        "fish": ["carp", "pike", "perch"],
        "type": "reservoir",
        "voivodeship": "Lubuskie"
    },
    {
        "id": 114,
        "name": "Jezioro Długie (Olsztyn Area)",
        "lat": 53.7667,
        "lng": 20.4667,
        "district": "PZW Olsztyn",
        "fish": ["pike", "perch", "roach"],
        "type": "lake",
        "voivodeship": "Warmińsko-Mazurskie"
    },
    {
        "id": 115,
        "name": "Rzeka Warta (Poznań Area)",
        "lat": 52.4000,
        "lng": 16.9167,
        "district": "PZW Poznań",
        "fish": ["pike", "zander", "bream"],
        "type": "river",
        "voivodeship": "Wielkopolskie"
    },
    {
        "id": 116,
        "name": "Zalew Koronowski (Bydgoszcz Area)",
        "lat": 53.3167,
        "lng": 17.9167,
        "district": "PZW Bydgoszcz",
        "fish": ["pike", "perch", "zander"],
        "type": "reservoir",
        "voivodeship": "Kujawsko-Pomorskie"
    },
    {
        "id": 117,
        "name": "Jezioro Niegocin (Giżycko Area)",
        "lat": 54.0333,
        "lng": 21.7667,
        "district": "PZW Giżycko",
        "fish": ["pike", "perch", "zander"],
        "type": "lake",
        "voivodeship": "Warmińsko-Mazurskie"
    },
    {
        "id": 118,
        "name": "Zbiornik Goczałkowice (Katowice Area)",
        "lat": 49.9333,
        "lng": 18.8667,
        "district": "PZW Katowice",
        "fish": ["carp", "pike", "zander"],
        "type": "reservoir",
        "voivodeship": "Śląskie"
    },
    {
        "id": 119,
        "name": "Jezioro Drawsko (Drawsko Pomorskie Area)",
        "lat": 53.5333,
        "lng": 16.2000,
        "district": "PZW Szczecin",
        "fish": ["pike", "perch", "bream"],
        "type": "lake",
        "voivodeship": "Zachodniopomorskie"
    },
    {
        "id": 120,
        "name": "Rzeka Noteć (Gorzów Wielkopolski Area)",
        "lat": 52.7333,
        "lng": 15.2333,
        "district": "PZW Gorzów Wielkopolski",
        "fish": ["pike", "bream", "roach"],
        "type": "river",
        "voivodeship": "Lubuskie"
    },
    {
        "id": 121,
        "name": "Zbiornik Nielisz (Zamość Area)",
        "lat": 50.8000,
        "lng": 23.0500,
        "district": "PZW Lublin",
        "fish": ["carp", "pike", "zander"],
        "type": "reservoir",
        "voivodeship": "Lubelskie"
    },
    {
        "id": 122,
        "name": "Jezioro Łuknajno (Mrągowo Area)",
        "lat": 53.8167,
        "lng": 21.6167,
        "district": "PZW Mrągowo",
        "fish": ["pike", "perch", "roach"],
        "type": "lake",
        "voivodeship": "Warmińsko-Mazurskie"
    }
]